[
    {
        "name": "ירושלים",
        "imageUrl": "https://upload.wikimedia.org/wikipedia/commons/2/2c/95914_jerusalem_and_the_string_bridge_PikiWiki_Israel.jpg",
        "description": "ירושלים היא עיר הבירה של ישראל ובה האוכלוסיה הגדולה ביותר במדינה. ירושלים מקודשת ליהדות, לנצרות ולאיסלם. היא הייתה המרכז הדתי והמדיני של חיי העם היהודי בימי קדם ומושא כמיהתו וכיסופיו בגלות.",
        "location": {
            "lat": 31.76615389663733,
            "lng": 35.21253215974865
        },
        "activities": [
            {
                "name": "הכותל המערבי",
                "location": {
                    "lat": 31.7768283219011,
                    "lng": 35.23446558863649
                },
                "description": "הכותל המערבי הוא אחד מארבעת קירות התמך המקיפים את הר הבית זה כאלפיים שנה, במסורת היהודית מיוחסת לכותל המערבי קדושה יתרה ויהודים מתפללים בו כבר יותר מ-1100 שנים."
            },
            {
                "name": "שוק מחנה יהודה",
                "location": {
                    "lat": 31.785683650983728,
                    "lng": 35.212168359800245
                },
                "description": "שוק מחנה יהודה הוא שוק מזון וביגוד הנמצא ברחובות יפו ואגריפס לצד שכונת מחנה יהודה בירושלים ומשמש כשוק מזון מרכזי בבירה."
            },
            {
                "name": "טחנת הרוח במשכנות שאננים",
                "location": {
                    "lat": 31.771664122200622,
                    "lng": 35.224153503980006
                },
                "description": "טחנת הרוח במשכנות שאננים שוכנת בכניסה לשכונת משכנות שאננים והיא המבנה הראשון שנבנה בה בשנת 1858. היא נבנתה ביזמתו של משה מונטיפיורי והוקמה על מנת לספק למתישבי השכונה מקור פרנסה."
            },
            {
                "name": "יד ושם",
                "location": {
                    "lat": 31.774448892293538,
                    "lng": 35.175301826692746
                },
                "description": "יד ושם הוא מוסד רשמי להנצחת זכר השואה בישראל, הוא מופקד על תיעוד ההיסטוריה של עם ישראל לפני השואה ובמהלכה, הנצחת סיפור חייהם וזכרם של מיליוני הנספים, והנחלת מורשת השואה לדורות הבאים."
            }
        ]
    },
    {
        "name": "טבריה",
        "imageUrl": "https://upload.wikimedia.org/wikipedia/commons/4/4d/92250_tiberias_PikiWiki_Israel.jpg",
        "description": "טבריה היא עיר המחוז הצפון בישראל, בגליל התחתון. היא נחשבת לאחת מארבע ערי הקודש בארץ ישראל. כיום נחשבת טבריה למרכז תיירות חשוב, המתבסס הן על קרבתה לכנרת, והן על קדושתה הדתית ליהדות ולנצרות.",
        "location": {
            "lat": 32.79100069716917,
            "lng": 35.520584900983856
        },
        "activities": [
            {
                "name": "כנרת",
                "location": {
                    "lat": 32.80044747670154,
                    "lng": 35.53677032521939
                },
                "description": "הכנרת היא ימה בצפון מזרחה של ישראל. זהו אגם המים המתוקים הגדול בארץ ישראל. הכנרת היא אתר נופש ובילוי פעיל. עשרות חופי רחצה מוסדרים קיימים לחופיה."
            },
            {
                "name": "קבר רבי מאיר בעל הנס",
                "location": {
                    "lat": 32.7664834644458,
                    "lng": 35.54969486951195
                },
                "description": "קבר רבי מאיר בעל הנס נמצא לחוף הכנרת, בשדרות אליעזר קפלן בדרומה של טבריה. במתחם הקבר יש כיום בית כנסת גדול וכולל."
            },
            {
                "name": "אקווה כיף",
                "location": {
                    "lat": 32.775293194111455,
                    "lng": 35.546183959757585
                },
                "description": "אקווה כיף הוא הפארק הצף היחיד והייחודי בארץ, הנמצא בחוף גנים בכנרת. הפארק מחולק לארבעה אזורים: משפחתי, אתגרי, אולימפי ואזור VIP."
            },
            {
                "name": "חמי טבריה",
                "location": {
                    "lat": 32.767806646218865,
                    "lng": 35.5503017020862
                },
                "description": "מעיינות חמי טבריה הוא אתר ספא ונופש על שפת הכנרת, המפורסם בזכות נביעה קבועה של מי תהום חמים העשירים במינרלים, בעלי תכונות בריאותיות התורמות למרפא ומרגוע לגוף ולנפש. "
            }
        ]
    },
    {
        "name": "צפת",
        "imageUrl": "https://upload.wikimedia.org/wikipedia/commons/f/f5/97136_safed_city_center_PikiWiki_Israel.jpg",
        "description": "צפת היא עיק במחוז הצפון בישראל ונחשבת לבירת הגליל העליון. בצפת והאזור קבורים עשרות צדיקים, חלק בבית העלמין העתיק וחלקם פזורים בשכונות העיר ומחוצה לה.",
        "location": {
            "lat": 32.963630767066114, 
            "lng": 35.495710203656586
        },
        "activities": [
            {
                "name": "קבר הארי",
                "location": {
                    "lat": 32.96925822505956, 
                    "lng": 35.48866697940153
                },
                "description": "הארי- רבי יצחק לוריא אשכנזי נקבר בבית העלמין של צפת והוא המפורסם ביותר שם. בתחתית המדרגות הנכנסות לבית העלמין מוביל שביל גישה למקווה הארי."
            },
            {
                "name": "קרית האומנים",
                "location": {
                    "lat": 32.96459760220937, 
                    "lng": 35.49436599999999
                },
                "description": "קרית האומנים בצפת נוסדה על ידי אומנים, ציירים ופסלים שבאו מכל קצוות הארץ לאחר מלחמת השחרור. הקריה, שידעה הרבה שנות זוהר, נפרדה במשך השנים מרבים מטובי חבריה. בחדר הזכרון אשר בתערוכה הכללית, ניתן לראות מבחר עבודות של האמנים המייסדים. באולם המרכזי מוצגות היצירות של כ- 60 ציירים ופסלים, חברי קרית האמנים."
            },
            {
                "name": "פארק עמק התכלת",
                "location": {
                    "lat": 32.97303168503157, 
                    "lng": 35.49922128858483
                },
                "description": "פארק עמק התכלת מביא את המבקרים בו אל אווירת נופי הטבע של צפת מימים עברו. בפארק, המשתרע על פני כ-560 דונם, מפכים מעיינות הרריים קטנים המרווים עצי בוסתן. לצד הפלג צומחים עצי ערבה ועצי צפצפה תמירים. גשרונים חוצים את הערוץ מצד לצד והמים הזורמים בו נאספים לבריכות נאות. כל אלה נמצאים מול הר מירון, ההר הגבוה בגליל, שמתנוסס כחומה ירוקה מנגד."
            },
            {
                "name": "העיר העתיקה",
                "location": {
                    "lat": 32.96844710943281, 
                    "lng": 35.493320728972726
                },
                "description": "בצפת העתיקה תמצאו מקומות לינה שיצאו מגלויה, הרחובות המרוצפים לוחות אבן גיר משופשפים וחלקלקים מיושן. בסמטאות תמצאו עציצים בכל פינה. חנויות מזכרות ויודאיקה צפתית. סדנאות אומנים וקרמיקה. מוזיאונים לעתיקות צפת, נרות. וכמובן הרבה בתי כנסת פעילים, שמקפלים בסודותיהם סיפורים עתיקים במשך מאות שנים."
            }
        ]
    },
    {
        "name": "אשדוד",
        "imageUrl": "https://upload.wikimedia.org/wikipedia/commons/3/3d/98606_redding_power_station_PikiWiki_Israel.jpg",
        "description": "אשדוד היא העיר הגדולה במחוז הדרום. היא אחת הערים העתיקות בארץ ישראל. מאז הקמתה, אשדוד קולטת עלייה יהודית נרחבת מרחבי העולם, ואחוז העולים החדשים בה הוא מהגבוהים בישראל.",
        "location": {
            "lat": 31.801101523992855,
            "lng": 34.653401340667344
        },
        "activities": [
            {
                "name": "פארק אשדוד ים",
                "location": {
                    "lat": 31.796668748847466, 
                    "lng": 34.6355836193224
                },
                "description": "פארק אשדוד ים הינו פרויקט הדגל של העיר אשדוד, הפארק משתרע על שטח של 200 דונם ומשמש לבילוי וקיט לכל המשפחה. הפארק מציע מגוון אטרקציות, מתקני משחק, מגרשי ספורט מגוונים לכדורסל ולכדורגל, נקודת מצפור גבוהה עם נוף פנורמי לחוף הים וסלעי ארץ ישראל."
            },
            {
                "name": "מרכז מבקרים נמל אשדוד",
                "location": {
                    "lat": 31.815805602353553, 
                    "lng": 34.64506291195811
                },
                "description": "מרכז המבקרים החדש של נמל אשדוד הוא מהגדולים, המושקעים והמתקדמים בארץ. מטרתו היא להציג את חשיבותו האסטרטגית בחיי היומיום ותרומתו לכלכלה מיום הקמתו, בראשית שנות ה-60 ועד היום. במרכז מגוון אמצעי המחשה ובהם סרטים, משחקים אינטראקטיביים שהמבקרים לוקחים בהם חלק פעיל, סרטים היסטוריים, תמונות נדירות ומעבר במספר תחנות הכוללות בין השאר סימולציה של ניתוב אוניה וקשירתה לרציף."
            },
            {
                "name": "מרינה",
                "location": {
                    "lat": 31.794742609924086, 
                    "lng": 34.62857847046558
                },
                "description": "במרינה ניתן למצוא שירותי עגינה רבים לכל כלי השייט, למעלה מ-500 כלי שייט שונים ומגוונים, ובנוסף המרינה מציעה מגוון אטרקציות כגון גלישת רוח, גלישת עפיפונים, חתירת סירות, סקי מים ועוד."
            },
            {
                "name": "פארק אתגרים",
                "location": {
                    "lat": 31.81988665536374, 
                    "lng": 34.6561093581642
                },
                "description": "פארק אתגרי לכל המשפחה, מוקף טיילת ירוקה ואווירה פסטורלית. הפארק משלב פעילות מגבשת המתאימה לכל הגילאים- למשפחות, קבוצות וחברות. במקום פועלים טרמפולינה, אומגה, מכוניות חשמליות מתנגשות, מגדל טיפוס, מתנפחים, מאהל בדואי ועוד."
            }
        ]
    },
    {
        "name": "",
        "imageUrl": "",
        "description": "",
        "location": {
            "lat": 31.76615389663733,
            "lng": 35.21253215974865
        },
        "activities": [
            {
                "name": "",
                "location": {
                    "lat": 0,
                    "lng": 0
                },
                "description": ""
            },
            {
                "name": "",
                "location": {
                    "lat": 0,
                    "lng": 0
                },
                "description": ""
            },
            {
                "name": "",
                "location": {
                    "lat": 0,
                    "lng": 0
                },
                "description": ""
            },
            {
                "name": "",
                "location": {
                    "lat": 0,
                    "lng": 0
                },
                "description": ""
            }
        ]
    }
]